{"generated": "2026-07-09", "source": "Open Data Euskadi (CC-BY 4.0)", "license": "CC-BY-4.0", "count": 27, "pois": [{"name": {"es": "ARRIEN", "eu": "ARRIEN"}, "lat": 43.418951, "lon": -2.935855, "tags": {"municipality": "Gorliz", "territory": "Bizkaia", "capacity": "385", "documentdescription": "Camping situado en la Bahía de Gorliz, a 500 metros del núcleo urbano, en un hermos..."}}, {"name": {"es": "FARO DE HIGUER", "eu": "FARO DE HIGUER"}, "lat": 43.392352, "lon": -1.794519, "tags": {"municipality": "Hondarribia", "territory": "Gipuzkoa", "capacity": "416", "documentdescription": "Camping situado en el cabo de Higuer, en un lugar privilegiado entre el mar y la montaña, ..."}}, {"name": {"es": "CAMPING BUNGALOWS IGUELDO SAN SEBASTIAN", "eu": "CAMPING BUNGALOWS IGUELDO SAN SEBASTIAN"}, "lat": 43.30475, "lon": -2.045764, "tags": {"municipality": "Donostia / San Sebastián", "territory": "Gipuzkoa", "capacity": "901", "documentdescription": " Ofrece una experiencia glamping que combina naturaleza, comodidad y descanso.Situado e..."}}, {"name": {"es": "ITXASPE", "eu": "ITXASPE"}, "lat": 43.294156, "lon": -2.329613, "tags": {"municipality": "Deba", "territory": "Gipuzkoa", "capacity": "483", "documentdescription": "El camping Itxaspe se encuentra en el barrio Itxaspe de Deba, rodeado por un bello entorno natura..."}}, {"name": {"es": "LEAGI", "eu": "LEAGI"}, "lat": 43.35223, "lon": -2.493148, "tags": {"municipality": "Mendexa", "territory": "Bizkaia", "capacity": "673", "documentdescription": "Dispone de parcelas de hierba de 30 m2 o de 60 m2 con electricidad y de 7 bungalows de madera con..."}}, {"name": {"es": "OLIDEN", "eu": "OLIDEN"}, "lat": 43.315372, "lon": -1.874251, "tags": {"municipality": "Oiartzun", "territory": "Gipuzkoa", "capacity": "235", "documentdescription": "Camping situado al borde de la carretera N-1. Dispone de capacidad para 235 personas en verdes pa..."}}, {"name": {"es": "PLAYA DE ORIO", "eu": "PLAYA DE ORIO"}, "lat": 43.286559, "lon": -2.12575, "tags": {"municipality": "Orio", "territory": "Gipuzkoa", "capacity": "764", "documentdescription": "Tiene capacidad para 712 personas en parcelas de hierba.Cuenta con bar-restaurante, supermercado,..."}}, {"name": {"es": "PORTUONDO", "eu": "PORTUONDO"}, "lat": 43.398776, "lon": -2.695959, "tags": {"municipality": "Mundaka", "territory": "Bizkaia", "capacity": "344", "documentdescription": "Dispone de dos zonas de acampada  una para tiendas individuales, para clientes sin vehícul..."}}, {"name": {"es": "SANTA ELENA", "eu": "SANTA ELENA"}, "lat": 43.313117, "lon": -2.393861, "tags": {"municipality": "Mutriku", "territory": "Gipuzkoa", "capacity": "120", "documentdescription": "Dispone de 120 parcelas rodeadas de verde y de múltiples servicios como, supermercado, lav..."}}, {"name": {"es": "TALAI MENDI", "eu": "TALAI MENDI"}, "lat": 43.286021, "lon": -2.155167, "tags": {"municipality": "Zarautz", "territory": "Gipuzkoa", "capacity": "900", "documentdescription": "Dispone de espacio para caravanas y tiendas de campaña. Cuenta con numerosos servicios ent..."}}, {"name": {"es": "AITZETA", "eu": "AITZETA"}, "lat": 43.305123, "lon": -2.378559, "tags": {"municipality": "Mutriku", "territory": "Gipuzkoa", "capacity": "271", "documentdescription": "Camping situado muy cerca del centro urbano de Mutriku, sobre un monte y con vistas al mar. Tiene..."}}, {"name": {"es": "ENDAI", "eu": "ENDAI"}, "lat": 43.354447, "lon": -2.485419, "tags": {"municipality": "Mendexa", "territory": "Bizkaia", "capacity": "238", "documentdescription": "Camping situado en plena montaña y cerca del mar, entre las villas pesqueras de Lekeitio y..."}}, {"name": {"es": "GALDONA", "eu": "GALDONA"}, "lat": 43.317513, "lon": -2.400911, "tags": {"municipality": "Mutriku", "territory": "Gipuzkoa", "capacity": "120", "documentdescription": "Camping que ofrece una gran zona arbolada y zona verde donde poder acampar. Cuenta con todos los ..."}}, {"name": {"es": "IBAYA", "eu": "IBAYA"}, "lat": 42.830547, "lon": -2.722126, "tags": {"municipality": "Vitoria-Gasteiz", "territory": "Araba/Álava", "capacity": "250", "documentdescription": "Camping situado a 5 kilómetros del centro de Vitoria-Gasteiz, en un entorno tranquilo dond..."}}, {"name": {"es": "SOPELANA", "eu": "SOPELANA"}, "lat": 43.389299, "lon": -2.984228, "tags": {"municipality": "Sopela", "territory": "Bizkaia", "capacity": "600", "documentdescription": "Camping situado en el municipio costero de Sopela. Se encuentra a 150 metros de la playa y dispon..."}}, {"name": {"es": "ZINGIRA", "eu": "ZINGIRA"}, "lat": 43.255888, "lon": -2.131167, "tags": {"municipality": "Aia", "territory": "Gipuzkoa", "capacity": "500", "documentdescription": "Dispone de 30.000 m² de zona de acampada (unas 500 personas) y otros 30.000 m² de bosqu..."}}, {"name": {"es": "GRAN CAMPING ZARAUZ", "eu": "GRAN CAMPING ZARAUZ"}, "lat": 43.289973, "lon": -2.146322, "tags": {"municipality": "Zarautz", "territory": "Gipuzkoa", "capacity": "1400", "documentdescription": "Por su situación, es un lugar adecuado para disfrutar del mar y del monte, siendo a su vez..."}}, {"name": {"es": "SATURRARAN", "eu": "SATURRARAN"}, "lat": 43.316694, "lon": -2.411294, "tags": {"municipality": "Mutriku", "territory": "Gipuzkoa", "capacity": "100", "documentdescription": "Camping rodeado de verde y a 100 metros de la playa. Ofrece la posibilidad de disfrutar de la nat..."}}, {"name": {"es": "ANGOSTO", "eu": "ANGOSTO"}, "lat": 42.842384, "lon": -3.068684, "tags": {"municipality": "Valdegovía/Gaubea", "territory": "Araba/Álava", "capacity": "244", "documentdescription": "Cuenta con parcelas para tiendas y bungalows para 4 o 6 personas. Además el camping ofrece..."}}, {"name": {"es": "LAKIOLA", "eu": "LAKIOLA"}, "lat": 43.070931, "lon": -2.34934, "tags": {"municipality": "Legazpi", "territory": "Gipuzkoa", "capacity": "20", "documentdescription": "Este pequeño pero acogedor camping se encuentra situado en el interior de Gipuzkoa, rodead..."}}, {"name": {"es": "EL ROBLE VERDE", "eu": "EL ROBLE VERDE"}, "lat": 42.795251, "lon": -2.879575, "tags": {"municipality": "Erriberagoitia/Ribera Alta", "territory": "Araba/Álava", "capacity": "520", "documentdescription": "El camping El Roble Verde está situado en el sur de Álava, entre los pueblos de Pob..."}}, {"name": {"es": "IGARA DE SAN SEBASTIAN", "eu": "IGARA DE SAN SEBASTIAN"}, "lat": 43.296918, "lon": -2.037743, "tags": {"municipality": "Donostia / San Sebastián", "territory": "Gipuzkoa", "capacity": "415", "documentdescription": "En sus 35.000 metros cuadrados cuenta con parcelas para tiendas, caravanas y autocaravanas. Tambi..."}}, {"name": {"es": "LANESTOSA CAMPERPARK", "eu": "LANESTOSA CAMPERPARK"}, "lat": 43.217926, "lon": -3.439524, "tags": {"municipality": "Lanestosa", "territory": "Bizkaia", "capacity": "42", "documentdescription": "Cuenta con con servicio de videovigilancia, wifi, lavandería autoservicio, wc y ducha..."}}, {"name": {"es": "BILBAO CARAVANPARK", "eu": "BILBAO CARAVANPARK"}, "lat": 43.258921, "lon": -2.962643, "tags": {"municipality": "Bilbao", "territory": "Bizkaia", "capacity": "72", "documentdescription": "Bilbao Caravanpark ofrece a los turistas que viajen con caravana o autocaravana un espacio en el ..."}}, {"name": {"es": "ZUMAIA", "eu": "ZUMAIA"}, "lat": 43.289664, "lon": -2.247814, "tags": {"municipality": "Zumaia", "territory": "Gipuzkoa", "capacity": "497", "documentdescription": "De modernas instalaciones, dispone de 2 piscinas, zona de solárium, parque infantil, zona ..."}}, {"name": {"es": "Area Autocaravanas Igueldo San Sebastian", "eu": "Area Autocaravanas Igueldo San Sebastian"}, "lat": 43.30475, "lon": -2.045764, "tags": {"municipality": "Donostia / San Sebastián", "territory": "Gipuzkoa", "capacity": "0", "documentdescription": "“Camping Bungalows Igueldo San Sebastián&rdquor  está situado en un precioso ..."}}, {"name": {"es": "JAIZKIBEL", "eu": "JAIZKIBEL"}, "lat": 43.366358, "lon": -1.804593, "tags": {"municipality": "Hondarribia", "territory": "Gipuzkoa", "capacity": "324"}}]}