{"generated": "2026-07-08", "source": "Open Data Euskadi (CC-BY 4.0)", "license": "CC-BY-4.0", "count": 82, "pois": [{"name": {"es": "BARRIKA SURF CAMP", "eu": "BARRIKA SURF CAMP"}, "lat": 43.405255, "lon": -2.965739, "tags": {"municipality": "Barrika", "territory": "Bizkaia", "capacity": "26", "documentdescription": "El albergue Barrika Surf Camp se encuentra en Barrika, pequeña población situada al..."}}, {"name": {"es": "MOANA SURF HOSTEL", "eu": "MOANA SURF HOSTEL"}, "lat": 43.370939, "lon": -2.949119, "tags": {"municipality": "Urduliz", "territory": "Bizkaia", "capacity": "75", "documentdescription": "Moana Surf Hostel situado en la pequeña localidad de Urduliz  en un entorno verde y boscos..."}}, {"name": {"es": "GANBARA", "eu": "GANBARA"}, "lat": 43.258365, "lon": -2.918713, "tags": {"municipality": "Bilbao", "territory": "Bizkaia", "capacity": "62", "documentdescription": "El albergue Ganbara Hostel, situado en el Casco Viejo de Bilbao es un alojamiento moderno y diver..."}}, {"name": {"es": "PIL PIL HOSTEL", "eu": "PIL PIL HOSTEL"}, "lat": 43.262776, "lon": -2.946555, "tags": {"municipality": "Bilbao", "territory": "Bizkaia", "capacity": "63", "documentdescription": "Pil Pil Hostel está ubicado en el centro de Bilbao, muy cerca del estadio de fútbol..."}}, {"name": {"es": "BILBAO AKELARRE YOUTH HOSTEL", "eu": "BILBAO AKELARRE YOUTH HOSTEL"}, "lat": 43.268705, "lon": -2.954432, "tags": {"municipality": "Bilbao", "territory": "Bizkaia", "capacity": "34", "documentdescription": "Albergue Bilbao Akelarre Youth Hostel está situado en el barrio de Deusto de Bilbao, conoc..."}}, {"name": {"es": "URBAN HOUSE", "eu": "URBAN HOUSE"}, "lat": 43.321551, "lon": -1.982765, "tags": {"municipality": "Donostia / San Sebastián", "territory": "Gipuzkoa", "capacity": "30", "documentdescription": "El albergue Urban house, está situado en la Plaza Gipuzkoa, en pleno Casco Viejo de San Se..."}}, {"name": {"es": "UBA HOSTEL", "eu": "UBA HOSTEL"}, "lat": 43.30788, "lon": -1.954979, "tags": {"municipality": "Donostia / San Sebastián", "territory": "Gipuzkoa", "capacity": "196", "documentdescription": "Nuestras playas urbanas nos convierten en una singular combinación de olas y bullicio, de ..."}}, {"name": {"es": "ZARAUTZ HOSTEL", "eu": "ZARAUTZ HOSTEL"}, "lat": 43.284614, "lon": -2.158887, "tags": {"municipality": "Zarautz", "territory": "Gipuzkoa", "capacity": "24", "documentdescription": "Este albergue inaugurado en 2014 está situado a tan sólo 5 minutos de la playa de Z..."}}, {"name": {"es": "MOON HOSTEL BIO", "eu": "MOON HOSTEL BIO"}, "lat": 43.272299, "lon": -2.946778, "tags": {"municipality": "Bilbao", "territory": "Bizkaia", "capacity": "84", "documentdescription": "Moon Hostel Bio es un albergue moderno y cómodo ubicado en el céntrico  barrio bilb..."}}, {"name": {"es": "SAN FERMIN 1", "eu": "SAN FERMIN 1"}, "lat": 43.323173, "lon": -1.984824, "tags": {"municipality": "Donostia / San Sebastián", "territory": "Gipuzkoa", "capacity": "44", "documentdescription": "Este albergue está situado en pleno casco antiguo de San Sebastián, y rodeado de lo..."}}, {"name": {"es": "SAN FERMIN 2", "eu": "SAN FERMIN 2"}, "lat": 43.323173, "lon": -1.984824, "tags": {"municipality": "Donostia / San Sebastián", "territory": "Gipuzkoa", "capacity": "18", "documentdescription": "Este albergue está situado en pleno casco antiguo de San Sebastián, y rodeado de lo..."}}, {"name": {"es": "BBK BILBAO GOOD HOSTEL", "eu": "BBK BILBAO GOOD HOSTEL"}, "lat": 43.246778, "lon": -2.909857, "tags": {"municipality": "Bilbao", "territory": "Bizkaia", "capacity": "104", "documentdescription": "BBK Bilbao Good Hostel, está ubicado en el barrio bilbaíno de Bolueta, a tan s&oacu..."}}, {"name": {"es": "GALERNA ZARAUTZ HOSTEL", "eu": "GALERNA ZARAUTZ HOSTEL"}, "lat": 43.283411, "lon": -2.165072, "tags": {"municipality": "Zarautz", "territory": "Gipuzkoa", "capacity": "18", "documentdescription": "Galerna Zarautz Hostel ofrece, desde junio de 2014, a sus huéspedes un alojamiento econ&oa..."}}, {"name": {"es": "DOWNTOWN RIVER", "eu": "DOWNTOWN RIVER"}, "lat": 43.318515, "lon": -1.979447, "tags": {"municipality": "Donostia / San Sebastián", "territory": "Gipuzkoa", "capacity": "23", "documentdescription": "Ofrece un alojamiento económico, moderno y confortable a sus huéspedes.El albergue ..."}}, {"name": {"es": "SURFING ETXEA", "eu": "SURFING ETXEA"}, "lat": 43.324812, "lon": -1.973644, "tags": {"municipality": "Donostia / San Sebastián", "territory": "Gipuzkoa", "capacity": "18", "documentdescription": "Además, se ofrecen distintas actividades en las que acercar el surf. Su ubicación c..."}}, {"name": {"es": "BILBAO CENTRAL HOSTEL", "eu": "BILBAO CENTRAL HOSTEL"}, "lat": 43.258786, "lon": -2.934609, "tags": {"municipality": "Bilbao", "territory": "Bizkaia", "capacity": "54", "documentdescription": "Su ubicación es ideal para conocer Bilbao a pie muchos de los puntos de interés. A ..."}}, {"name": {"es": "BILBAO ATERPETXEA HOSTEL", "eu": "BILBAO ATERPETXEA HOSTEL"}, "lat": 43.263215, "lon": -2.96162, "tags": {"municipality": "Bilbao", "territory": "Bizkaia", "capacity": "166", "documentdescription": "Con capacidad para 170 personas es una buena alternativa de alojamiento para grupos e incluso par..."}}, {"name": {"es": "LEKEITIO ATERPETXEA  HOSTEL", "eu": "LEKEITIO ATERPETXEA  HOSTEL"}, "lat": 43.356297, "lon": -2.506805, "tags": {"municipality": "Ispaster", "territory": "Bizkaia", "capacity": "22", "documentdescription": "Este albergue se encuentra en Lekeitio, una de las tradicionales villas marineras de Bizkaia que ..."}}, {"name": {"es": "BIDE ONA", "eu": "BIDE ONA"}, "lat": 43.318783, "lon": -3.023374, "tags": {"municipality": "Portugalete", "territory": "Bizkaia", "capacity": "40", "documentdescription": "Aquellos que lo hacen en bicicleta disponen de un servicio para guardarlas.Cuenta con ropa de cam..."}}, {"name": {"es": "LIZARRUSTI PARKETXEA", "eu": "LIZARRUSTI PARKETXEA"}, "lat": 42.960475, "lon": -2.099423, "tags": {"municipality": "Ataun", "territory": "Gipuzkoa", "capacity": "40", "documentdescription": "En un entorno que aúna la  naturaleza, con el arte, la cultura y las personas se encuentra..."}}, {"name": {"es": "LA BODEGA DE SALINILLAS", "eu": "LA BODEGA DE SALINILLAS"}, "lat": 42.633553, "lon": -2.832699, "tags": {"municipality": "Labastida/Bastida", "territory": "Araba/Álava", "capacity": "16", "documentdescription": "Una bodega familiar convertida en alojamiento, en un edificio totalmente rehabilitado. Enclavada ..."}}, {"name": {"es": "IZARBIDE", "eu": "IZARBIDE"}, "lat": 43.294125, "lon": -2.38593, "tags": {"municipality": "Mutriku", "territory": "Gipuzkoa", "capacity": "30", "documentdescription": "El albergue se ubica en una antigua vaquería reformada, a las faldas del monte Arno y en p..."}}, {"name": {"es": "BEIZAMAKO ATERPETXEA", "eu": "BEIZAMAKO ATERPETXEA"}, "lat": 43.134006, "lon": -2.199597, "tags": {"municipality": "Beizama", "territory": "Gipuzkoa", "capacity": "20", "documentdescription": "Se trata de un alojamiento perfecto para centros de enseñanza grupos, asociaciones y famil..."}}, {"name": {"es": "SANTA BARBARA", "eu": "SANTA BARBARA"}, "lat": 43.092348, "lon": -2.334588, "tags": {"municipality": "Urretxu", "territory": "Gipuzkoa", "capacity": "40", "documentdescription": "Orientado a alojar a grupos grandes dispone de habitaciones con capacidad entre 8 y 24 personas, ..."}}, {"name": {"es": "UZTARTZA", "eu": "UZTARTZA"}, "lat": 43.20332, "lon": -2.049589, "tags": {"municipality": "Aduna", "territory": "Gipuzkoa", "capacity": "47", "documentdescription": "Situado en Aduna, un pequeño municipio a tan sólo 18 km de San Sebastián, ju..."}}, {"name": {"es": "LASTURKO ATERPETXEA", "eu": "LASTURKO ATERPETXEA"}, "lat": 43.250764, "lon": -2.33338, "tags": {"municipality": "Deba", "territory": "Gipuzkoa", "capacity": "60", "documentdescription": "Su ubicación, junto al Camino de Santiago es perfecta para los peregrinos que en su recorr..."}}, {"name": {"es": "TRINKETE ETXEA ATERPETXEA", "eu": "TRINKETE ETXEA ATERPETXEA"}, "lat": 43.367558, "lon": -2.504918, "tags": {"municipality": "Lekeitio", "territory": "Bizkaia", "capacity": "54", "documentdescription": "El albergue, totalmente reformado, está equipado con habitaciones de 2, 4, 5, 6 y 7 plazas..."}}, {"name": {"es": "HARIZTI ERDI", "eu": "HARIZTI ERDI"}, "lat": 43.013082, "lon": -2.273477, "tags": {"municipality": "Zerain", "territory": "Gipuzkoa", "capacity": "44", "documentdescription": "El albergue está ubicado en la antigua escuela de Zerain en la comarca del Goierri.    Dis..."}}, {"name": {"es": "OTARDI LANDA ATERPETXEA", "eu": "OTARDI LANDA ATERPETXEA"}, "lat": 43.206551, "lon": -2.100761, "tags": {"municipality": "Asteasu", "territory": "Gipuzkoa", "capacity": "30", "documentdescription": "Se trata de un caserío centenario completamente rehabilitado y situado en un entorno natur..."}}, {"name": {"es": "LA PARRA HOSTEL", "eu": "LA PARRA HOSTEL"}, "lat": 43.428566, "lon": -2.808218, "tags": {"municipality": "Bakio", "territory": "Bizkaia", "capacity": "22", "documentdescription": "Ubicado en pleno centro de Bakio y a sólo 80 metros de una de las playas preferidas para l..."}}, {"name": {"es": "MANDOIA", "eu": "MANDOIA"}, "lat": 43.160974, "lon": -2.803975, "tags": {"municipality": "Zeberio", "territory": "Bizkaia", "capacity": "16", "documentdescription": "Este alojamiento está ubicado en un entorno rural, frente al Parque Natural del Gorbeia, p..."}}, {"name": {"es": "ALL IRON HOSTEL", "eu": "ALL IRON HOSTEL"}, "lat": 43.259715, "lon": -2.912519, "tags": {"municipality": "Bilbao", "territory": "Bizkaia", "capacity": "84", "documentdescription": "El albergue All Iron Hostel se encuentra en el barrio de Begoña, junto a la Basílic..."}}, {"name": {"es": "QUARTIER  BILBAO", "eu": "QUARTIER  BILBAO"}, "lat": 43.256197, "lon": -2.923463, "tags": {"municipality": "Bilbao", "territory": "Bizkaia", "capacity": "78", "documentdescription": "Quartier Bibao es un albergue moderno y acogedor ubicado en pleno Casco Viejo de Bilbao, entre la..."}}, {"name": {"es": "CATS HOSTELS SAN SEBASTIAN", "eu": "CATS HOSTELS SAN SEBASTIAN"}, "lat": 43.31097, "lon": -2.001057, "tags": {"municipality": "Donostia / San Sebastián", "territory": "Gipuzkoa", "capacity": "134", "documentdescription": "Cats Hostles San Sebastián se encuentra muy cerca del centro y de las numerosas atrac..."}}, {"name": {"es": "KOBA HOSTEL", "eu": "KOBA HOSTEL"}, "lat": 43.322876, "lon": -1.972951, "tags": {"municipality": "Donostia / San Sebastián", "territory": "Gipuzkoa", "capacity": "68", "documentdescription": "Este alojamiento está situado en Gros, uno de los barrios de moda de San Sebastián ..."}}, {"name": {"es": "BILBAO METROPOLITAN HOSTEL", "eu": "BILBAO METROPOLITAN HOSTEL"}, "lat": 43.256544, "lon": -2.934096, "tags": {"municipality": "Bilbao", "territory": "Bizkaia", "capacity": "92", "documentdescription": "El Bilbao Metropolitan Hostel es un moderno albergue ubicado en pleno centro de Bilbao, en la zon..."}}, {"name": {"es": "Hostel Getaria", "eu": "Hostel Getaria"}, "lat": 43.302828, "lon": -2.204869, "tags": {"municipality": "Getaria", "territory": "Gipuzkoa", "capacity": "20", "documentdescription": "El Hostal Txalupa es un alojamiento pensado para quienes están realizando el camino de San..."}}, {"name": {"es": "Balea hostel", "eu": "Balea hostel"}, "lat": 43.307082, "lon": -1.966507, "tags": {"municipality": "Donostia / San Sebastián", "territory": "Gipuzkoa", "capacity": "36", "documentdescription": "Balea Hostel es un hostal situado en el barrio de Loiola de San Sebastián, cercano a la es..."}}, {"name": {"es": "A ROOM IN THE CITY", "eu": "A ROOM IN THE CITY"}, "lat": 43.316417, "lon": -1.983673, "tags": {"municipality": "Donostia / San Sebastián", "territory": "Gipuzkoa", "capacity": "214", "documentdescription": "A room in the city es un hostal que permite a sus huéspedes conocer de cerca los encantos ..."}}, {"name": {"es": "ARRITXULO ATERPETXEA", "eu": "ARRITXULO ATERPETXEA"}, "lat": 43.27223, "lon": -1.795801, "tags": {"municipality": "Oiartzun", "territory": "Gipuzkoa", "capacity": "82", "documentdescription": "Arritxulo Aterpetxea es un albergue ubicado en el término municipal de Oiartzun, en la fal..."}}, {"name": {"es": "ARANTZAZU ATERPETXEA", "eu": "ARANTZAZU ATERPETXEA"}, "lat": 42.979803, "lon": -2.401321, "tags": {"municipality": "Oñati", "territory": "Gipuzkoa", "capacity": "56", "documentdescription": "Emplazado a escasos metros del Santuario de Arantzazu, cuna del arte contemporáneo vasco, ..."}}, {"name": {"es": "ERLETXE", "eu": "ERLETXE"}, "lat": 43.325401, "lon": -1.858649, "tags": {"municipality": "Lezo", "territory": "Gipuzkoa", "capacity": "10", "documentdescription": "A escasos metros de la estación de tren de Gaitxurizketa se encuentra el albergue Erletxe...."}}, {"name": {"es": "Albergue Natura Sobron", "eu": "Albergue Natura Sobron"}, "lat": 42.773992, "lon": -3.115032, "tags": {"municipality": "Lantarón", "territory": "Araba/Álava", "capacity": "26", "documentdescription": "El albergue Sobrón Natura está enclavado en uno de los entornos naturales má..."}}, {"name": {"es": "ALARPE", "eu": "ALARPE"}, "lat": 43.033504, "lon": -2.158518, "tags": {"municipality": "Zaldibia", "territory": "Gipuzkoa", "capacity": "21", "documentdescription": "El albergue Alarpe está integrado en el centro de turismo ecuestre del mismo nombre por lo..."}}, {"name": {"es": "MOANA ECO SURF HOUSE", "eu": "MOANA ECO SURF HOUSE"}, "lat": 43.380952, "lon": -2.994381, "tags": {"municipality": "Sopela", "territory": "Bizkaia", "capacity": "112", "documentdescription": "Moana Eco Surf House es un alojamiento surf-friendly en la zona de Uribe Kosta. Situado a 400 met..."}}, {"name": {"es": "Laga surf camp", "eu": "Laga surf camp"}, "lat": 43.389263, "lon": -2.631294, "tags": {"municipality": "Ibarrangelu", "territory": "Bizkaia", "capacity": "36", "documentdescription": "Laga Surf Camp es un surf hostel que se encuentra en el municipio de Ibarrangelu dentro de la res..."}}, {"name": {"es": "USANDI", "eu": "USANDI"}, "lat": 43.250334, "lon": -2.549814, "tags": {"municipality": "Ziortza-Bolibar", "territory": "Bizkaia", "capacity": "26", "documentdescription": "Usandi es un albergue en el Camino de Santiago por la costa, en la localidad de Ziortza-Bolibar. ..."}}, {"name": {"es": "BLAI BLAI ATERPEA", "eu": "BLAI BLAI ATERPEA"}, "lat": 43.285974, "lon": -2.165708, "tags": {"municipality": "Zarautz", "territory": "Gipuzkoa", "capacity": "24", "documentdescription": "Pequeño hotel familiar a tan solo 3 minutos andando de la playa de Zarautz, tan cerca, que..."}}, {"name": {"es": "LATROUPE LA GRANJA", "eu": "LATROUPE LA GRANJA"}, "lat": 43.261626, "lon": -2.927063, "tags": {"municipality": "Bilbao", "territory": "Bizkaia", "capacity": "202", "documentdescription": "Ubicado en la Plaza Circular, en Abando, este alojamiento es perfecto para recorrer toda la ciuda..."}}, {"name": {"es": "HOSTEL GATZAGAK ETXEA", "eu": "HOSTEL GATZAGAK ETXEA"}, "lat": 42.802059, "lon": -2.986571, "tags": {"municipality": "Añana", "territory": "Araba/Álava", "capacity": "20", "documentdescription": "Alojamiento ubicado junto a las Salinas de Añana, declaradas cómo Monumento Naciona..."}}, {"name": {"es": "KORTA ATERPETXEA", "eu": "KORTA ATERPETXEA"}, "lat": 42.889559, "lon": -2.320737, "tags": {"municipality": "Asparrena", "territory": "Araba/Álava", "capacity": "16", "documentdescription": "Situado en el municipio de Asparrena, repleto de tesoros naturales como el nacedero del rí..."}}, {"name": {"es": "HOSTEL A UN PASO", "eu": "HOSTEL A UN PASO"}, "lat": 43.323031, "lon": -3.019349, "tags": {"municipality": "Portugalete", "territory": "Bizkaia", "capacity": "10", "documentdescription": "Este albergue se encuentra en Portugalete, exactamente junto a nuestra joya arquitectónica..."}}, {"name": {"es": "POSHTEL BILBAO", "eu": "POSHTEL BILBAO"}, "lat": 43.266982, "lon": -2.931608, "tags": {"municipality": "Bilbao", "territory": "Bizkaia", "capacity": "166", "documentdescription": "En Poshtel Bilbao, ubicado a pocos paso del Museo Guggenheim Bilbao, tendrás la opci&..."}}, {"name": {"es": "UBILLA ATERPETXEA", "eu": "UBILLA ATERPETXEA"}, "lat": 43.298315, "lon": -2.561438, "tags": {"municipality": "Aulesti", "territory": "Bizkaia", "capacity": "20", "documentdescription": "En el idílico municipio vizcaíno de Aulesti, a menos de 20 minutos en coche de Leke..."}}, {"name": {"es": "ABARAXKA AZKOITIA HOSTEL", "eu": "ABARAXKA AZKOITIA HOSTEL"}, "lat": 43.172298, "lon": -2.308539, "tags": {"municipality": "Azkoitia", "territory": "Gipuzkoa", "capacity": "72", "documentdescription": "Rodeado de naturaleza y paisajes verdes, Abaraxka Hostel se sitúa en Azkoitia a 70 kil&oac..."}}, {"name": {"es": "LOGUNE ROOMS", "eu": "LOGUNE ROOMS"}, "lat": 42.848731, "lon": -2.669508, "tags": {"municipality": "Vitoria-Gasteiz", "territory": "Araba/Álava", "capacity": "42", "documentdescription": "Logune Rooms está ubicado cerca de la almendra medieval de la capital de Euskadi, la ubica..."}}, {"name": {"es": "ALBERGUE RURAL DE MANZANOS", "eu": "ALBERGUE RURAL DE MANZANOS"}, "lat": 42.741675, "lon": -2.876354, "tags": {"municipality": "Ribera Baja/Erriberabeitia", "territory": "Araba/Álava", "capacity": "6", "documentdescription": "Ubicado en el Casco Histórico de Manzanos, en la Ribera Baja, este albergue perteneciente ..."}}, {"name": {"es": "COLO COLO", "eu": "COLO COLO"}, "lat": 43.318927, "lon": -1.979649, "tags": {"municipality": "Donostia / San Sebastián", "territory": "Gipuzkoa", "capacity": "28", "documentdescription": "En pleno centro de San Sebastián se encuentra Colo Colo, un albergue con un nuevo concepto..."}}, {"name": {"es": "ZARAUTZ_SURFHOUSE", "eu": "ZARAUTZ_SURFHOUSE"}, "lat": 43.286545, "lon": -2.174557, "tags": {"municipality": "Zarautz", "territory": "Gipuzkoa", "capacity": "44", "documentdescription": "En Zarautz Surf House podrás sumergirte en una experiencia inolvidable, un lugar donde el ..."}}, {"name": {"es": "PAORRA BASERRIA", "eu": "PAORRA BASERRIA"}, "lat": 43.263223, "lon": -2.108237, "tags": {"municipality": "Aia", "territory": "Gipuzkoa", "capacity": "40", "documentdescription": "Este caserío del siglo XVIII, cuidadosamente restaurado para preservar su encanto tradicio..."}}, {"name": {"es": "URBIZIXA", "eu": "URBIZIXA"}, "lat": 43.191703, "lon": -2.384321, "tags": {"municipality": "Elgoibar", "territory": "Gipuzkoa", "capacity": "14", "documentdescription": "Urbizixa es un alojamiento que ofrece hospedarse en una casa rural, en habitaciones o pensi&oacut..."}}, {"name": {"es": "UNEONAK", "eu": "UNEONAK"}, "lat": 43.295566, "lon": -1.992285, "tags": {"municipality": "Donostia / San Sebastián", "territory": "Gipuzkoa", "capacity": "15", "documentdescription": "El Albergue UneOnak te ofrece una propuesta única de desconexión cerca del centro d..."}}, {"name": {"es": "KEIN HOSTEL", "eu": "KEIN HOSTEL"}, "lat": 43.286692, "lon": -2.172518, "tags": {"municipality": "Zarautz", "territory": "Gipuzkoa", "capacity": "20", "documentdescription": "Ubicado en el malecón de Zarautz, a un suspiro de la playa, este albergue es perfecto para..."}}, {"name": {"es": "URI", "eu": "URI"}, "lat": 43.267916, "lon": -2.921051, "tags": {"municipality": "Bilbao", "territory": "Bizkaia", "capacity": "27", "documentdescription": "URI Hostel, se encuentra en el vibrante barrio de Uribarri en Bilbao. El hostel está a sol..."}}, {"name": {"es": "POZUETA", "eu": "POZUETA"}, "lat": 43.302936, "lon": -2.725709, "tags": {"municipality": "Muxika", "territory": "Bizkaia", "capacity": "16", "documentdescription": "Descubre el encanto rústico y la tranquilidad de Pozueta, un albergue ubicado en un caser&..."}}, {"name": {"es": "ERROTA ATERPETXEA", "eu": "ERROTA ATERPETXEA"}, "lat": 43.161142, "lon": -2.630587, "tags": {"municipality": "Durango", "territory": "Bizkaia", "capacity": "20", "documentdescription": "El albergue Errota en Durango ofrece una estancia cómoda y entretenida a solo 10 minutos d..."}}, {"name": {"es": "OPTIMI ROOMS", "eu": "OPTIMI ROOMS"}, "lat": 43.258213, "lon": -2.94393, "tags": {"municipality": "Bilbao", "territory": "Bizkaia", "capacity": "60", "documentdescription": "Optimi Rooms te trae una propuesta de alojamiento muy especial, dormitorios en forma de cá..."}}, {"name": {"es": "BCOOL GUITAR", "eu": "BCOOL GUITAR"}, "lat": 43.258477, "lon": -2.933211, "tags": {"municipality": "Bilbao", "territory": "Bizkaia", "capacity": "44", "documentdescription": "Bilbao es una ciudad que ofrece una experiencia única para aquellos que la visitan. Desde ..."}}, {"name": {"es": "URDAIBAI BIRD CENTER", "eu": "URDAIBAI BIRD CENTER"}, "lat": 43.346927, "lon": -2.657085, "tags": {"municipality": "Gautegiz Arteaga", "territory": "Bizkaia", "capacity": "22", "documentdescription": "La Biosfera de Urdaibai es el lugar perfecto para la gente que ama la observación de aves,..."}}, {"name": {"es": "ALBERGUE AMALURRA", "eu": "ALBERGUE AMALURRA"}, "lat": 43.23555, "lon": -3.219463, "tags": {"municipality": "Artzentales", "territory": "Bizkaia", "capacity": "38", "documentdescription": "El Albergue Amalurra es un pequeño oasis enclavado en un entorno natural privilegiado..."}}, {"name": {"es": "ALBERGUE AKARREGI", "eu": "ALBERGUE AKARREGI"}, "lat": 43.302952, "lon": -2.210006, "tags": {"municipality": "Getaria", "territory": "Gipuzkoa", "capacity": "24", "documentdescription": "El albergue permanecerá abierto del 17 de marzo al 19 de octubreUbicado en la pintore..."}}, {"name": {"es": "LARRAITZ", "eu": "LARRAITZ"}, "lat": 43.271652, "lon": -2.238303, "tags": {"municipality": "Aizarnazabal", "territory": "Gipuzkoa", "capacity": "35", "documentdescription": "Descubre Larraitz Aterpetxea, un acogedor albergue situado en el encantador pueblo de Aizarnazaba..."}}, {"name": {"es": "OLABE", "eu": "OLABE"}, "lat": 43.376782, "lon": -2.577547, "tags": {"municipality": "Ea", "territory": "Bizkaia", "capacity": "30", "documentdescription": "Olabe se encuentra en Ea, un pueblo costero cerca de uno de los mayores espacios naturales de Eus..."}}, {"name": {"es": "URBAN GARDEN BILBAO", "eu": "URBAN GARDEN BILBAO"}, "lat": 43.255025, "lon": -2.929571, "tags": {"municipality": "Bilbao", "territory": "Bizkaia", "capacity": "10", "documentdescription": "Urban Garden Bilbao es el alojamiento perfecto para descubrir todos los rincones de Bilbao. A poc..."}}, {"name": {"es": "LAMIA BBK WOMEN HOSTEL", "eu": "LAMIA BBK WOMEN HOSTEL"}, "lat": 43.251776, "lon": -2.946657, "tags": {"municipality": "Bilbao", "territory": "Bizkaia", "capacity": "64", "documentdescription": "Lamia BBK Women Hostel es mucho más que un alojamiento, es un espacio pensado especialment..."}}, {"name": {"es": "APTC ETXEA", "eu": "APTC ETXEA"}, "lat": 42.850405, "lon": -2.673645, "tags": {"municipality": "Vitoria-Gasteiz", "territory": "Araba/Álava", "capacity": "26", "documentdescription": "Ubicado en el corazón de Vitoria-Gasteiz, APTC Etxea es un albergue acogedor y funcional, ..."}}, {"name": {"es": "MONTE BASERRIA", "eu": "MONTE BASERRIA"}, "lat": 43.24349, "lon": -2.538311, "tags": {"municipality": "Ziortza-Bolibar", "territory": "Bizkaia", "capacity": "22", "documentdescription": "Ubicado en Ziortza-Bolibar, muy cerca de la Colegiata de Zenarruza y del Museo de Simón Bo..."}}, {"name": {"es": "MUNITIBARREKO ALBERGEA", "eu": "MUNITIBARREKO ALBERGEA"}, "lat": 43.265507, "lon": -2.592952, "tags": {"municipality": "Munitibar-Arbatzegi Gerrikaitz", "territory": "Bizkaia", "capacity": "8", "documentdescription": "En el encantador pueblo de Munitibar, este albergue ofrece una estancia cómoda y acogedora..."}}, {"name": {"es": "SALLOBANTE ATERPETXEA", "eu": "SALLOBANTE ATERPETXEA"}, "lat": 43.329928, "lon": -2.719546, "tags": {"municipality": "Errigoiti", "territory": "Bizkaia", "capacity": "14", "documentdescription": "La casa Sallobante Aterpetxea ubicada en Errigoiti es el alojamiento ideal para grupos. Dispone d..."}}, {"name": {"es": "AREITZ SOROA ATERPE", "eu": "AREITZ SOROA ATERPE"}, "lat": 43.258977, "lon": -3.13668, "tags": {"municipality": "Galdames", "territory": "Bizkaia", "capacity": "10", "documentdescription": "Albergue Areitz Soroa Aterpe está ubicado en Galdames, es un enclave rural úni..."}}, {"name": {"es": "ALBERGUE GEREKIZ", "eu": "ALBERGUE GEREKIZ"}, "lat": 43.299603, "lon": -2.739038, "tags": {"municipality": "Morga", "territory": "Bizkaia", "capacity": "30", "documentdescription": "El albergue Gerekiz es una opción perfecta para quienes buscan disfrutar de una ..."}}, {"name": {"es": "SAN BARTOLOME UDAL ATERPETXEA / ALBERGUE MUNICIPAL SAN BARTOLOME", "eu": "SAN BARTOLOME UDAL ATERPETXEA / ALBERGUE MUNICIPAL SAN BARTOLOME"}, "lat": 42.619419, "lon": -2.594486, "tags": {"municipality": "Lagrán", "territory": "Araba/Álava", "capacity": "16", "documentdescription": " Ubicado a corta distancia del núcleo urbano de Lagran, el albergue se integra en un ..."}}]}