{"generated": "2026-07-08", "source": "Open Data Euskadi (CC-BY 4.0)", "license": "CC-BY-4.0", "count": 60, "pois": [{"name": {"es": "Playa de Aritzatxu", "eu": "Playa de Aritzatxu"}, "lat": 43.426271, "lon": -2.730414, "tags": {"municipality": "Bermeo", "territory": "Bizkaia", "documentdescription": "La playa de Aritzatxu, situada en el municipio vizcaíno de Bermeo, forma una pequeña y atractiva cala de arena dorada ro"}}, {"name": {"es": "Playa de Toña", "eu": "Playa de Toña"}, "lat": 43.391078, "lon": -2.691822, "tags": {"municipality": "Sukarrieta", "territory": "Bizkaia", "documentdescription": "Protegida por la isla de Txatxarramendi, esta tranquila y acogedora cala se asoma a la ría de Mundaka. La playa de Toña "}}, {"name": {"es": "Playa de Ondarbeltz", "eu": "Playa de Ondarbeltz"}, "lat": 43.301412, "lon": -2.357451, "tags": {"municipality": "Mutriku", "territory": "Gipuzkoa", "documentdescription": "Tal y como indica su nombre en euskera, esta playa de aguas tranquilas está compuesta de una arena fina y oscura. A pesa"}}, {"name": {"es": "Playa de Isuntza", "eu": "Playa de Isuntza"}, "lat": 43.363254, "lon": -2.501106, "tags": {"municipality": "Lekeitio", "territory": "Bizkaia", "documentdescription": "La playa de Isuntza se encuentra en el municipio de Lekeitio, al este del litoral vizcaíno. Al estar ubicada en el mismo"}}, {"name": {"es": "Playa de Gorrondatxe (Azkorri)", "eu": "Playa de Gorrondatxe (Azkorri)"}, "lat": 43.379101, "lon": -3.02021, "tags": {"municipality": "Getxo", "territory": "Bizkaia", "documentdescription": "Gorrondatxe es la cuarta playa de Getxo y quizá la menos accesible, pero la más limpia. Conocido también por el nombre d"}}, {"name": {"es": "Playa de Las Arenas", "eu": "Playa de Las Arenas"}, "lat": 43.326426, "lon": -3.017764, "tags": {"municipality": "Getxo", "territory": "Bizkaia", "documentdescription": "La playa de Las Arenas se encuentra en el municipio vizcaíno de Getxo, en el Abra de Bilbao, junto al muelle de Churruca"}}, {"name": {"es": "Playa de Ondarreta", "eu": "Playa de Ondarreta"}, "lat": 43.317185, "lon": -2.002773, "tags": {"municipality": "Donostia / San Sebastián", "territory": "Gipuzkoa", "documentdescription": "Situada en el extremo oeste de la capital donostiarra, al abrigo del monte Igeldo y frente a la isla de Santa Clara, est"}}, {"name": {"es": "Playa de Laga", "eu": "Playa de Laga"}, "lat": 43.409038, "lon": -2.656631, "tags": {"municipality": "Ibarrangelu", "territory": "Bizkaia", "documentdescription": "La hermosa playa dunar de Laga, enclavada en la Reserva de la Biosfera de Urdaibai y junto al cabo de Ogoño (279 m), per"}}, {"name": {"es": "Playa de Gaztetape", "eu": "Playa de Gaztetape"}, "lat": 43.303655, "lon": -2.206051, "tags": {"municipality": "Getaria", "territory": "Gipuzkoa", "documentdescription": "La playa de Gaztetape se esconde al oeste del monte San Antón, más conocido por el nombre de Ratón de Getaria por su pec"}}, {"name": {"es": "Playa de Arrigorri", "eu": "Playa de Arrigorri"}, "lat": 43.322854, "lon": -2.419208, "tags": {"municipality": "Ondarroa", "territory": "Bizkaia", "documentdescription": "La playa de Arrigorri está situada en el municipio de Ondarroa, en Bizkaia. Además de poder tomar el sol y disfrutar de "}}, {"name": {"es": "Playa de Ereaga", "eu": "Playa de Ereaga"}, "lat": 43.34189, "lon": -3.013635, "tags": {"municipality": "Getxo", "territory": "Bizkaia", "documentdescription": "La playa de Ereaga se encuentra en el municipio de Getxo, entre el puerto viejo de Algorta y el espigón de Arriluze. Con"}}, {"name": {"es": "Playa de Laida", "eu": "Playa de Laida"}, "lat": 43.399575, "lon": -2.685621, "tags": {"municipality": "Ibarrangelu", "territory": "Bizkaia", "documentdescription": "La playa de Laida pertenece al municipio vizcaíno de Ibarrangelu y está ubicada en la Reserva de la Biosfera de Urdaibai"}}, {"name": {"es": "Playa de Gorliz", "eu": "Playa de Gorliz"}, "lat": 43.41839, "lon": -2.945709, "tags": {"municipality": "Gorliz", "territory": "Bizkaia", "documentdescription": "Sus extensas arenas y la seguridad de su baño hacen que esta playa sea preferida por las familias. La playa de Gorliz, c"}}, {"name": {"es": "Playa de la Zurriola", "eu": "Playa de la Zurriola"}, "lat": 43.327176, "lon": -1.973591, "tags": {"municipality": "Donostia / San Sebastián", "territory": "Gipuzkoa", "documentdescription": "La playa de la Zurriola se halla en el barrio donostiarra de Gros, bajo la atenta mirada del Palacio de Congresos y Audi"}}, {"name": {"es": "Playa de Kanalape", "eu": "Playa de Kanalape"}, "lat": 43.381846, "lon": -2.678518, "tags": {"municipality": "Gautegiz Arteaga", "territory": "Bizkaia", "documentdescription": "La playa de Kanalape es uno de los arenales que se forman en la ría de Gernika. Está ubicada en el municipio vizcaíno de"}}, {"name": {"es": "Playa de La Concha", "eu": "Playa de La Concha"}, "lat": 43.318184, "lon": -1.986465, "tags": {"municipality": "Donostia / San Sebastián", "territory": "Gipuzkoa", "documentdescription": "Situada en pleno centro de la ciudad, ofrece al visitante la oportunidad de disfrutar de magníficas vistas, como la que "}}, {"name": {"es": "Playa de Malkorbe", "eu": "Playa de Malkorbe"}, "lat": 43.301297, "lon": -2.2021, "tags": {"municipality": "Getaria", "territory": "Gipuzkoa", "documentdescription": "La playa de Malkorbe es uno de los dos arenales que tiene Getaria. Está situada cerca del casco urbano, justo al lado de"}}, {"name": {"es": "Playa de Bakio", "eu": "Playa de Bakio"}, "lat": 43.430235, "lon": -2.805762, "tags": {"municipality": "Bakio", "territory": "Bizkaia", "documentdescription": "La hermosa playa de Bakio, situada en el municipio vizcaíno del mismo nombre, cuenta con un largo paseo que recorre toda"}}, {"name": {"es": "Playa de Laidatxu", "eu": "Playa de Laidatxu"}, "lat": 43.404985, "lon": -2.699375, "tags": {"municipality": "Mundaka", "territory": "Bizkaia", "documentdescription": "La playa de Laidatxu se halla en el municipio vizcaíno de Mundaka, muy cerca del casco urbano. De dimensiones pequeñas y"}}, {"name": {"es": "Playas de Arriatera y Atxabiribil", "eu": "Playas de Arriatera y Atxabiribil"}, "lat": 43.389749, "lon": -2.992836, "tags": {"municipality": "Sopela", "territory": "Bizkaia", "documentdescription": "Las amplias y tranquilas playas Sopela, Arriatera y Atxabiribil, comparten arena, aunque no hay delimitación entre la un"}}, {"name": {"es": "Playa de Kanala", "eu": "Playa de Kanala"}, "lat": 43.384591, "lon": -2.681179, "tags": {"municipality": "Gautegiz Arteaga", "territory": "Bizkaia", "documentdescription": "La playa de Kanala está ubicada en el municipio vizcaíno de Gautegiz-Arteaga, en la margen derecha de la ría de Gernika."}}, {"name": {"es": "Playa de Hondarribia", "eu": "Playa de Hondarribia"}, "lat": 43.379789, "lon": -1.794502, "tags": {"municipality": "Hondarribia", "territory": "Gipuzkoa", "documentdescription": "La playa de Hondarribia está ubicada en el extremo oriental del litoral guipuzcoano, concretamente en la hermosa bahía d"}}, {"name": {"es": "Playa de Antilla", "eu": "Playa de Antilla"}, "lat": 43.288723, "lon": -2.127956, "tags": {"municipality": "Orio", "territory": "Gipuzkoa", "documentdescription": "La principal playa de Orio se encuentra en un entorno excepcional, junto a la desembocadura del Oria y al abrigo del mon"}}, {"name": {"es": "Playa del Puerto (Mutriku)", "eu": "Playa del Puerto (Mutriku)"}, "lat": 43.310945, "lon": -2.380482, "tags": {"municipality": "Mutriku", "territory": "Gipuzkoa", "documentdescription": "Tal y como su propio nombre indica, esta pequeña playa urbana se sitúa junto al puerto de Mutriku, cerca del casco viejo"}}, {"name": {"es": "Playa de Muriola", "eu": "Playa de Muriola"}, "lat": 43.413029, "lon": -2.959957, "tags": {"municipality": "Barrika", "territory": "Bizkaia", "documentdescription": "También conocida como La Cantera, está playa nudista está ubicada a 10 minutos del casco urbano de Barrika, en una peque"}}, {"name": {"es": "Playa de Arrigunaga", "eu": "Playa de Arrigunaga"}, "lat": 43.358253, "lon": -3.018707, "tags": {"municipality": "Getxo", "territory": "Bizkaia", "documentdescription": "La playa de Arrigunaga se encuentra en el municipio de Getxo, en Bizkaia. Ubicada bajo los acantilados de La Galea, ofre"}}, {"name": {"es": "Playa de Karraspio", "eu": "Playa de Karraspio"}, "lat": 43.362817, "lon": -2.49424, "tags": {"municipality": "Mendexa", "territory": "Bizkaia", "documentdescription": "La hermosa playa de Karraspio pertenece al municipio de Mendexa, aunque prácticamente se encuentra en Lekeitio. El arena"}}, {"name": {"es": "Playa de Hondartzape", "eu": "Playa de Hondartzape"}, "lat": 43.412573, "lon": -2.701584, "tags": {"municipality": "Mundaka", "territory": "Bizkaia", "documentdescription": "La playa de Hondartzape está ubicada en el municipio vizcaíno de Mundaka, a 36 km de Bilbao. La principal característica"}}, {"name": {"es": "Playa de Saturraran", "eu": "Playa de Saturraran"}, "lat": 43.321806, "lon": -2.410984, "tags": {"municipality": "Mutriku", "territory": "Gipuzkoa", "documentdescription": "Emplazado en el extremo occidental del litoral guipuzcoano, lindando con Bizkaia, la playa de Saturraran forma parte de "}}, {"name": {"es": "Playa de Santiago", "eu": "Playa de Santiago"}, "lat": 43.301946, "lon": -2.251167, "tags": {"municipality": "Zumaia", "territory": "Gipuzkoa", "documentdescription": "La playa de Santiago está situada en las afueras de Zumaia, entre las marismas de la desembocadura del río Urola y la ca"}}, {"name": {"es": "Playa Santiago de Deba", "eu": "Playa Santiago de Deba"}, "lat": 43.298318, "lon": -2.35427, "tags": {"municipality": "Deba", "territory": "Gipuzkoa", "documentdescription": "La playa de Santiago de Deba se halla al oeste del litoral guipuzcoano, junto a la desembocadura del río que lleva el no"}}, {"name": {"es": "Playa de Itzurun", "eu": "Playa de Itzurun"}, "lat": 43.300554, "lon": -2.260432, "tags": {"municipality": "Zumaia", "territory": "Gipuzkoa", "documentdescription": "La playa de Itzurun, en Zumaia, forma parte de uno de los tramos más espectaculares del litoral guipuzcoano. Sus enormes"}}, {"name": {"es": "Playa de Barrika", "eu": "Playa de Barrika"}, "lat": 43.405458, "lon": -2.97299, "tags": {"municipality": "Barrika", "territory": "Bizkaia", "documentdescription": "La playa de Barrika, enclavada en el municipio del mismo nombre y a 25 km de Bilbao, es una playa salvaje de 600 metros "}}, {"name": {"es": "Playa de Plentzia", "eu": "Playa de Plentzia"}, "lat": 43.411283, "lon": -2.947083, "tags": {"municipality": "Plentzia", "territory": "Bizkaia", "documentdescription": "Contigua a la playa de Gorliz, es uno de los arenales más frecuentados de la costa vizcaína. La playa se encuentra en un"}}, {"name": {"es": "Playa de Ogeia", "eu": "Playa de Ogeia"}, "lat": 43.373237, "lon": -2.545738, "tags": {"municipality": "Ispaster", "territory": "Bizkaia", "documentdescription": "La playa de Ogeia se halla en el municipio de Ispaster, en la costa oriental de Bizkaia. Esta apacible y tranquila playa"}}, {"name": {"es": "Biotopo Protegido Complejo Lagunar de Laguardia", "eu": "Biotopo Protegido Complejo Lagunar de Laguardia"}, "lat": 42.549315, "lon": -2.570158, "tags": {"municipality": "Laguardia", "territory": "Araba/Álava", "documentdescription": "Las Lagunas de Laguardia forman un Biotopo Protegido que se encuentra en pleno corazón de Rioja Alavesa, en las proximid"}}, {"name": {"es": "Biotopo Protegido de Itxina", "eu": "Biotopo Protegido de Itxina"}, "lat": 43.065878, "lon": -2.81147, "tags": {"municipality": "Orozko", "territory": "Bizkaia", "documentdescription": "El macizo de Itxina (571 ha) se encuentra en el interior del Parque Natural de Gorbeia y constituye un magnífico ejemplo"}}, {"name": {"es": "Biotopo Protegido de Iñurritza", "eu": "Biotopo Protegido de Iñurritza"}, "lat": 43.280368, "lon": -2.171567, "tags": {"municipality": "Zarautz", "territory": "Gipuzkoa", "documentdescription": "Situado en las inmediaciones del casco urbano de Zarautz, el Biotopo Protegido de Iñurritza constituye el campo de dunas"}}, {"name": {"es": "Parque Ecológico de Plaiaundi", "eu": "Parque Ecológico de Plaiaundi"}, "lat": 43.349056, "lon": -1.785493, "tags": {"municipality": "Irun", "territory": "Gipuzkoa", "documentdescription": "El Parque Ecológico de Plaiaundi se encuentra emplazado en el área comprendida entre el río Bidasoa y la regata de Jaizu"}}, {"name": {"es": "Playa de Zarautz", "eu": "Playa de Zarautz"}, "lat": 43.287706, "lon": -2.172888, "tags": {"municipality": "Zarautz", "territory": "Gipuzkoa", "documentdescription": "La playa de Zarautz llama especialmente la atención por su extensa longitud, con 2.500 metros de fina arena dorada. Este"}}, {"name": {"es": "Embalse de Urkulu", "eu": "Embalse de Urkulu"}, "lat": 43.019567, "lon": -2.476983, "tags": {"municipality": "Aretxabaleta", "territory": "Gipuzkoa", "documentdescription": "El embalse de Urkulu se halla en el interior del territorio histórico de Gipuzkoa, a pocos kilómetros de Aretxabaleta y "}}, {"name": {"es": "Embalse de Ullíbarri-Gamboa", "eu": "Embalse de Ullíbarri-Gamboa"}, "lat": 42.926012, "lon": -2.569771, "tags": {"municipality": "Arratzua-Ubarrundia", "territory": "Araba/Álava", "documentdescription": "Emplazado en el municipio alavés de Arrazua-Ubarrundia, el embalse de Ullíbarri-Gamboa además de abastecer de agua a Vit"}}, {"name": {"es": "Embalse de Maroño", "eu": "Embalse de Maroño"}, "lat": 43.046813, "lon": -3.059864, "tags": {"municipality": "Ayala/Aiara", "territory": "Araba/Álava", "documentdescription": "El embalse de Maroño, enclavado en la localidad del mismo nombre, perteneciente al municipio de Ayala. Se encuentra prot"}}, {"name": {"es": "Piscinas fluviales de Espejo", "eu": "Piscinas fluviales de Espejo"}, "lat": 42.809638, "lon": -3.046388, "tags": {"municipality": "Valdegovía/Gaubea", "territory": "Araba/Álava", "documentdescription": "Las piscinas fluviales de Espejo se hallan en el territorio histórico de Álava, en el municipio de Valdegovía, dentro de"}}, {"name": {"es": "Piscinas fluviales de Fresnedo", "eu": "Piscinas fluviales de Fresnedo"}, "lat": 42.676252, "lon": -2.3703, "tags": {"municipality": "Campezo/Kanpezu", "territory": "Araba/Álava", "documentdescription": "Las piscinas fluviales de Fresnedo se sitúan en la entrada de la localidad alavesa de Santa Cruz de Campezo, a un escaso"}}, {"name": {"es": "Playa de Armintza", "eu": "Playa de Armintza"}, "lat": 43.433218, "lon": -2.898967, "tags": {"municipality": "Lemoiz", "territory": "Bizkaia", "documentdescription": "Pequeño barrio pesquero del municipio de Lemoiz, un lugar con mucho encanto donde se suceden unas olas de lo más curiosa"}}, {"name": {"es": "Playa de Ea", "eu": "Playa de Ea"}, "lat": 43.382817, "lon": -2.584048, "tags": {"municipality": "Ea", "territory": "Bizkaia", "documentdescription": "La playa de Ea se halla en el municipio del mismo nombre, en la costa oriental de Bizkaia. Al estar ubicado en el mismo "}}, {"name": {"es": "La Arboleda", "eu": "La Arboleda"}, "lat": 43.284928, "lon": -3.05386, "tags": {"municipality": "Valle de Trápaga-Trapagaran", "territory": "Bizkaia", "documentdescription": "Convertido hoy en día en espacio de ocio y esparcimiento, La Arboleda fue un pueblo minero donde se extraía el mineral d"}}, {"name": {"es": "Playa de la Isla de Santa Clara", "eu": "Playa de la Isla de Santa Clara"}, "lat": 43.320711, "lon": -1.999653, "tags": {"municipality": "Donostia / San Sebastián", "territory": "Gipuzkoa", "documentdescription": "Este pequeño arenal se encuentra en el costado del embarcadero de la Isla de Santa Clara, en el centro de la bahía de La"}}, {"name": {"es": "Playa de Alkolea", "eu": "Playa de Alkolea"}, "lat": 43.307626, "lon": -2.371013, "tags": {"municipality": "Mutriku", "territory": "Gipuzkoa", "documentdescription": "Alkolea es una playa de rocas muy frecuentada por surfistas y por aficionados a la pesca submarina. Se trata de un arena"}}, {"name": {"es": "Txingudi", "eu": "Txingudi"}, "lat": 43.347026, "lon": -1.793177, "tags": {"municipality": "Irun", "territory": "Gipuzkoa", "documentdescription": "En su reducida extensión, Txingudi refleja las características geográficas que conceden importancia a Euskadi en el cont"}}, {"name": {"es": "Urdaibai", "eu": "Urdaibai"}, "lat": 43.346897, "lon": -2.656924, "tags": {"municipality": "Gautegiz Arteaga", "territory": "Bizkaia", "documentdescription": "El estuario de Urdaibai en la desembocadura del río Oca es, atendiendo a su extensión y grado de conservación, el humeda"}}, {"name": {"es": "Valderejo", "eu": "Valderejo"}, "lat": 42.875178, "lon": -3.230241, "tags": {"municipality": "Valdegovía/Gaubea", "territory": "Araba/Álava", "documentdescription": "Valderejo es un área rural encajada dentro de una amplia depresión y rodeada de elevados escarpes rocosos que destaca po"}}, {"name": {"es": "Salburua", "eu": "Salburua"}, "lat": 42.856792, "lon": -2.640333, "tags": {"municipality": "Vitoria-Gasteiz", "territory": "Araba/Álava", "documentdescription": "Salburua es una zona húmeda formada por varias lagunas restauradas rodeadas de prados húmedos, choperas y un pequeño rob"}}, {"name": {"es": "Embalse de Ullibarri Gamboa", "eu": "Embalse de Ullibarri Gamboa"}, "lat": 42.9092, "lon": -2.538175, "tags": {"municipality": "Arratzua-Ubarrundia", "territory": "Araba/Álava", "documentdescription": "A pocos kilómetros de Vitoria-Gasteiz, el embalse de Ullibarri-Gamboa es, a pesar de su origen artificial, una de sus zo"}}, {"name": {"es": "Izki", "eu": "Izki"}, "lat": 42.756878, "lon": -2.524094, "tags": {"municipality": "Arraia-Maeztu", "territory": "Araba/Álava", "documentdescription": "Izki es un área eminentemente forestal que alberga una de las formaciones más representativas de roble marojo (Quercus p"}}, {"name": {"es": "Lagunas de Laguardia", "eu": "Lagunas de Laguardia"}, "lat": 42.549315, "lon": -2.570158, "tags": {"municipality": "Laguardia", "territory": "Araba/Álava", "documentdescription": "El enclave de las Lagunas de Laguardia corresponde a cuatro humedales localizados en la proximidad de esta singular loca"}}, {"name": {"es": "Sierras Meridionales de Álava", "eu": "Sierras Meridionales de Álava"}, "lat": 42.698692, "lon": -2.433083, "tags": {"municipality": "Arraia-Maeztu", "territory": "Araba/Álava", "documentdescription": "La alineación montañosa de las sierras de Toloño, Cantabria y Codés se extiende de oeste a este en el sur de Álava, cons"}}, {"name": {"es": "Playa de Landa", "eu": "Playa de Landa"}, "lat": 42.940013, "lon": -2.605431, "tags": {"municipality": "Arratzua-Ubarrundia", "territory": "Araba/Álava", "documentdescription": "Situada en el embalse de Ullibarri-Gamboa tiene 40 Ha y 500 metros de playa. El pantano al que se asoma es el que sumini"}}, {"name": {"es": "Bahía de Txingudi y Hondarribia", "eu": "Bahía de Txingudi y Hondarribia"}, "lat": 43.367122, "lon": -1.790257, "tags": {"municipality": "Hondarribia", "territory": "Gipuzkoa", "documentdescription": "Hondarribia, Irun y Hendaia, se asoman a la bahía de Txingudi, en la desembocadura del río Bidasoa. Un espacio con perso"}}]}