{"generated": "2026-07-09", "source": "Open Data Euskadi (CC-BY 4.0)", "license": "CC-BY-4.0", "count": 19, "pois": [{"name": {"es": "Biotopo Protegido Complejo Lagunar de Laguardia", "eu": "Biotopo Protegido Complejo Lagunar de Laguardia"}, "lat": 42.549315, "lon": -2.570158, "tags": {"municipality": "Laguardia", "territory": "Araba/Álava", "documentdescription": "Las Lagunas de Laguardia forman un Biotopo Protegido que se encuentra en pleno corazón de Rioja Alavesa, en las proximid"}}, {"name": {"es": "Biotopo Protegido de Itxina", "eu": "Biotopo Protegido de Itxina"}, "lat": 43.065878, "lon": -2.81147, "tags": {"municipality": "Orozko", "territory": "Bizkaia", "documentdescription": "El macizo de Itxina (571 ha) se encuentra en el interior del Parque Natural de Gorbeia y constituye un magnífico ejemplo"}}, {"name": {"es": "Biotopo Protegido de Iñurritza", "eu": "Biotopo Protegido de Iñurritza"}, "lat": 43.280368, "lon": -2.171567, "tags": {"municipality": "Zarautz", "territory": "Gipuzkoa", "documentdescription": "Situado en las inmediaciones del casco urbano de Zarautz, el Biotopo Protegido de Iñurritza constituye el campo de dunas"}}, {"name": {"es": "Parque Ecológico de Plaiaundi", "eu": "Parque Ecológico de Plaiaundi"}, "lat": 43.349056, "lon": -1.785493, "tags": {"municipality": "Irun", "territory": "Gipuzkoa", "documentdescription": "El Parque Ecológico de Plaiaundi se encuentra emplazado en el área comprendida entre el río Bidasoa y la regata de Jaizu"}}, {"name": {"es": "Embalse de Urkulu", "eu": "Embalse de Urkulu"}, "lat": 43.019567, "lon": -2.476983, "tags": {"municipality": "Aretxabaleta", "territory": "Gipuzkoa", "documentdescription": "El embalse de Urkulu se halla en el interior del territorio histórico de Gipuzkoa, a pocos kilómetros de Aretxabaleta y "}}, {"name": {"es": "Embalse de Ullíbarri-Gamboa", "eu": "Embalse de Ullíbarri-Gamboa"}, "lat": 42.926012, "lon": -2.569771, "tags": {"municipality": "Arratzua-Ubarrundia", "territory": "Araba/Álava", "documentdescription": "Emplazado en el municipio alavés de Arrazua-Ubarrundia, el embalse de Ullíbarri-Gamboa además de abastecer de agua a Vit"}}, {"name": {"es": "Embalse de Maroño", "eu": "Embalse de Maroño"}, "lat": 43.046813, "lon": -3.059864, "tags": {"municipality": "Ayala/Aiara", "territory": "Araba/Álava", "documentdescription": "El embalse de Maroño, enclavado en la localidad del mismo nombre, perteneciente al municipio de Ayala. Se encuentra prot"}}, {"name": {"es": "Piscinas fluviales de Espejo", "eu": "Piscinas fluviales de Espejo"}, "lat": 42.809638, "lon": -3.046388, "tags": {"municipality": "Valdegovía/Gaubea", "territory": "Araba/Álava", "documentdescription": "Las piscinas fluviales de Espejo se hallan en el territorio histórico de Álava, en el municipio de Valdegovía, dentro de"}}, {"name": {"es": "Piscinas fluviales de Fresnedo", "eu": "Piscinas fluviales de Fresnedo"}, "lat": 42.676252, "lon": -2.3703, "tags": {"municipality": "Campezo/Kanpezu", "territory": "Araba/Álava", "documentdescription": "Las piscinas fluviales de Fresnedo se sitúan en la entrada de la localidad alavesa de Santa Cruz de Campezo, a un escaso"}}, {"name": {"es": "La Arboleda", "eu": "La Arboleda"}, "lat": 43.284928, "lon": -3.05386, "tags": {"municipality": "Valle de Trápaga-Trapagaran", "territory": "Bizkaia", "documentdescription": "Convertido hoy en día en espacio de ocio y esparcimiento, La Arboleda fue un pueblo minero donde se extraía el mineral d"}}, {"name": {"es": "Txingudi", "eu": "Txingudi"}, "lat": 43.347026, "lon": -1.793177, "tags": {"municipality": "Irun", "territory": "Gipuzkoa", "documentdescription": "En su reducida extensión, Txingudi refleja las características geográficas que conceden importancia a Euskadi en el cont"}}, {"name": {"es": "Urdaibai", "eu": "Urdaibai"}, "lat": 43.346897, "lon": -2.656924, "tags": {"municipality": "Gautegiz Arteaga", "territory": "Bizkaia", "documentdescription": "El estuario de Urdaibai en la desembocadura del río Oca es, atendiendo a su extensión y grado de conservación, el humeda"}}, {"name": {"es": "Valderejo", "eu": "Valderejo"}, "lat": 42.875178, "lon": -3.230241, "tags": {"municipality": "Valdegovía/Gaubea", "territory": "Araba/Álava", "documentdescription": "Valderejo es un área rural encajada dentro de una amplia depresión y rodeada de elevados escarpes rocosos que destaca po"}}, {"name": {"es": "Salburua", "eu": "Salburua"}, "lat": 42.856792, "lon": -2.640333, "tags": {"municipality": "Vitoria-Gasteiz", "territory": "Araba/Álava", "documentdescription": "Salburua es una zona húmeda formada por varias lagunas restauradas rodeadas de prados húmedos, choperas y un pequeño rob"}}, {"name": {"es": "Embalse de Ullibarri Gamboa", "eu": "Embalse de Ullibarri Gamboa"}, "lat": 42.9092, "lon": -2.538175, "tags": {"municipality": "Arratzua-Ubarrundia", "territory": "Araba/Álava", "documentdescription": "A pocos kilómetros de Vitoria-Gasteiz, el embalse de Ullibarri-Gamboa es, a pesar de su origen artificial, una de sus zo"}}, {"name": {"es": "Izki", "eu": "Izki"}, "lat": 42.756878, "lon": -2.524094, "tags": {"municipality": "Arraia-Maeztu", "territory": "Araba/Álava", "documentdescription": "Izki es un área eminentemente forestal que alberga una de las formaciones más representativas de roble marojo (Quercus p"}}, {"name": {"es": "Lagunas de Laguardia", "eu": "Lagunas de Laguardia"}, "lat": 42.549315, "lon": -2.570158, "tags": {"municipality": "Laguardia", "territory": "Araba/Álava", "documentdescription": "El enclave de las Lagunas de Laguardia corresponde a cuatro humedales localizados en la proximidad de esta singular loca"}}, {"name": {"es": "Sierras Meridionales de Álava", "eu": "Sierras Meridionales de Álava"}, "lat": 42.698692, "lon": -2.433083, "tags": {"municipality": "Arraia-Maeztu", "territory": "Araba/Álava", "documentdescription": "La alineación montañosa de las sierras de Toloño, Cantabria y Codés se extiende de oeste a este en el sur de Álava, cons"}}, {"name": {"es": "Bahía de Txingudi y Hondarribia", "eu": "Bahía de Txingudi y Hondarribia"}, "lat": 43.367122, "lon": -1.790257, "tags": {"municipality": "Hondarribia", "territory": "Gipuzkoa", "documentdescription": "Hondarribia, Irun y Hendaia, se asoman a la bahía de Txingudi, en la desembocadura del río Bidasoa. Un espacio con perso"}}]}